{"type":"FeatureCollection","features":[{"type":"Feature","geometry":{"type":"Polygon","coordinates":[[[-97.23372386848219,33.37122436823121],[-97.1776904449388,33.367117613249874],[-97.12337498211934,33.35492327231432],[-97.07244135375937,33.335015150826955],[-97.02644713844298,33.308003173918905],[-96.98679508148427,33.2747142378189],[-96.954689849798,33.236166333142044],[-96.93110146672963,33.19353681973388],[-96.91673652752702,33.148125914733384],[-96.91201797923911,33.10131659298325],[-96.91707392116984,33.05453218895482],[-96.93173556161585,33.00919303191239],[-96.95554416817842,32.96667344343839],[-96.98776658298982,32.92826038278746],[-97.02741864685333,32.89511494607267],[-97.07329568962342,32.86823781576549],[-97.1240090968872,32.848439623157326],[-97.17802785155847,32.83631703364902],[-97.23372386848219,32.832235197759495],[-97.28941988540592,32.83631703364902],[-97.34343864007718,32.848439623157326],[-97.39415204734097,32.86823781576549],[-97.44002909011105,32.89511494607267],[-97.47968115397457,32.92826038278746],[-97.51190356878597,32.96667344343839],[-97.53571217534854,33.00919303191239],[-97.55037381579454,33.05453218895482],[-97.55542975772528,33.10131659298325],[-97.55071120943737,33.148125914733384],[-97.53634627023476,33.19353681973388],[-97.51275788716639,33.236166333142044],[-97.48065265548011,33.2747142378189],[-97.44100059852141,33.308003173918905],[-97.39500638320501,33.335015150826955],[-97.34407275484504,33.35492327231432],[-97.28975729202558,33.367117613249874],[-97.23372386848219,33.37122436823121]]]},"properties":{"name":"Search Area","radius":30000}},{"type":"Feature","geometry":{"type":"Point","coordinates":[-97.1910233,32.8528116]},"properties":{"id":1,"name":"Roots Coffeehouse","address":"9101 Blvd 26 #101, North Richland Hills"}},{"type":"Feature","geometry":{"type":"Point","coordinates":[-96.99464400000001,33.0464185]},"properties":{"id":2,"name":"The Perc Coffeehouse","address":"115 W Main St, Lewisville"}},{"type":"Feature","geometry":{"type":"Point","coordinates":[-97.3096959,32.8964792]},"properties":{"id":3,"name":"Dutch Bros Coffee","address":"3333 N Tarrant Pkwy, Fort Worth"}},{"type":"Feature","geometry":{"type":"Point","coordinates":[-97.2976162,32.9321541]},"properties":{"id":4,"name":"Axiom Coffee","address":"4005 Golden Triangle Boulevard, Fort Worth"}},{"type":"Feature","geometry":{"type":"Point","coordinates":[-97.2754027,32.8940645]},"properties":{"id":5,"name":"7 Brew Coffee","address":"5001 N Tarrant Pkwy, Fort Worth"}},{"type":"Feature","geometry":{"type":"Point","coordinates":[-97.1272192,33.216302]},"properties":{"id":6,"name":"Zera Coffee Denton","address":"420 E McKinney St, Denton"}},{"type":"Feature","geometry":{"type":"Point","coordinates":[-97.133129,33.2158082]},"properties":{"id":7,"name":"West Oak Coffee Bar","address":"114 W Oak St, Denton"}},{"type":"Feature","geometry":{"type":"Point","coordinates":[-97.15759249999999,33.230113]},"properties":{"id":8,"name":"Dutch Bros Coffee","address":"2038 W University Dr, Denton"}},{"type":"Feature","geometry":{"type":"Point","coordinates":[-97.23920249999999,32.8440718]},"properties":{"id":9,"name":"Dutch Bros Coffee","address":"5205 Rufe Snow Dr, North Richland Hills"}},{"type":"Feature","geometry":{"type":"Point","coordinates":[-97.09948039999999,32.847532]},"properties":{"id":10,"name":"Dutch Bros Coffee","address":"714 N Industrial Blvd, Euless"}},{"type":"Feature","geometry":{"type":"Point","coordinates":[-97.2902464,32.8585356]},"properties":{"id":11,"name":"Dutch Bros Coffee","address":"6345 N Beach St, Fort Worth"}},{"type":"Feature","geometry":{"type":"Point","coordinates":[-97.0513069,33.0710954]},"properties":{"id":12,"name":"Dutch Bros Coffee","address":"1501 Justin Rd, Flower Mound"}},{"type":"Feature","geometry":{"type":"Point","coordinates":[-96.98327929999999,32.915657]},"properties":{"id":13,"name":"Cuppa Espresso Bar","address":"Located inside Irving Bible Church, 2435 Kinwest Pkwy, Irving"}},{"type":"Feature","geometry":{"type":"Point","coordinates":[-97.1867611,32.8543842]},"properties":{"id":14,"name":"Dutch Bros Coffee","address":"2155 Precinct Line Rd, Hurst"}},{"type":"Feature","geometry":{"type":"Point","coordinates":[-97.06882499999999,32.9413728]},"properties":{"id":15,"name":"Dutch Bros Coffee","address":"801 E Northwest Hwy, Grapevine"}},{"type":"Feature","geometry":{"type":"Point","coordinates":[-96.96038899999999,32.892079]},"properties":{"id":16,"name":"Starbucks","address":"5904 N MacArthur Blvd, Irving"}},{"type":"Feature","geometry":{"type":"Point","coordinates":[-97.3925094,32.8805524]},"properties":{"id":17,"name":"Dutch Bros Coffee","address":"4529 W Bailey Boswell Rd, Fort Worth"}},{"type":"Feature","geometry":{"type":"Point","coordinates":[-97.0772408,32.9333051]},"properties":{"id":18,"name":"Main Line Coffee Bar","address":"815 S Main St, Grapevine"}},{"type":"Feature","geometry":{"type":"Point","coordinates":[-97.3611926,32.8527521]},"properties":{"id":19,"name":"7 Brew Coffee","address":"604 S Saginaw Blvd, Saginaw"}},{"type":"Feature","geometry":{"type":"Point","coordinates":[-97.1895057,32.9101936]},"properties":{"id":20,"name":"Dutch Bros Coffee","address":"8605 Davis Blvd, North Richland Hills"}},{"type":"Feature","geometry":{"type":"Point","coordinates":[-97.1881332,32.8535842]},"properties":{"id":21,"name":"Babylon Coffee Roasters","address":"9986 Grapevine Hwy C, Hurst"}},{"type":"Feature","geometry":{"type":"Point","coordinates":[-97.08070029999999,32.8375278]},"properties":{"id":22,"name":"Dutch Bros Coffee","address":"221 E Euless Blvd, Euless"}},{"type":"Feature","geometry":{"type":"Point","coordinates":[-97.12762910000001,33.0755632]},"properties":{"id":23,"name":"Dutch Bros Coffee","address":"3901 FM 407, Lantana"},"id":23},{"type":"Feature","geometry":{"type":"Point","coordinates":[-97.2383127,32.8426794]},"properties":{"id":24,"name":"Starbucks","address":"5162 Rufe Snow Dr, North Richland Hills"}},{"type":"Feature","geometry":{"type":"Point","coordinates":[-97.10446999999999,32.8938566]},"properties":{"id":25,"name":"Buon Giorno Coffee","address":"2350 Hall - Johnson Rd, Grapevine"}},{"type":"Feature","geometry":{"type":"Point","coordinates":[-96.91192749999999,32.9867256]},"properties":{"id":26,"name":"Tom N Toms Coffee","address":"2625 Old Denton Rd #406, Carrollton"}},{"type":"Feature","geometry":{"type":"Point","coordinates":[-96.98157719999999,33.2252851]},"properties":{"id":27,"name":"Dutch Bros Coffee","address":"11950 US-380, Cross Roads"}},{"type":"Feature","geometry":{"type":"Point","coordinates":[-97.3180866,32.9074216]},"properties":{"id":28,"name":"151 Coffee","address":"9301 N Fwy, Fort Worth"}},{"type":"Feature","geometry":{"type":"Point","coordinates":[-97.0118784,33.0461621]},"properties":{"id":29,"name":"Dutch Bros Coffee","address":"815 W Main St, Lewisville"}},{"type":"Feature","geometry":{"type":"Point","coordinates":[-96.99333109999999,33.0284176]},"properties":{"id":30,"name":"Scooter's Coffee","address":"1225 S State Hwy 121, Lewisville"}},{"type":"Feature","geometry":{"type":"Point","coordinates":[-96.99254099999999,32.921816]},"properties":{"id":31,"name":"Starbucks","address":"8450 N Belt Line Rd, Irving"}},{"type":"Feature","geometry":{"type":"Point","coordinates":[-97.2274072,32.9333343]},"properties":{"id":32,"name":"Summer Moon Coffee","address":"1004 Keller Pkwy Ste 104, Keller"}},{"type":"Feature","geometry":{"type":"Point","coordinates":[-97.2163236,32.9340298]},"properties":{"id":33,"name":"Scooter's Coffee","address":"1570 Keller Pkwy, Keller"}},{"type":"Feature","geometry":{"type":"Point","coordinates":[-97.1972693,32.9033318]},"properties":{"id":34,"name":"Kindred Coffee Co.","address":"8700 N Tarrant Pkwy #109, North Richland Hills"}},{"type":"Feature","geometry":{"type":"Point","coordinates":[-96.9453353,32.8664657]},"properties":{"id":35,"name":"Starbucks","address":"4970 N O'Connor Rd, Irving"}},{"type":"Feature","geometry":{"type":"Point","coordinates":[-97.117447,32.91955]},"properties":{"id":36,"name":"Dutch Bros Coffee","address":"3115 Ira E. Wds Ave, Grapevine"}},{"type":"Feature","geometry":{"type":"Point","coordinates":[-97.113666,33.1743858]},"properties":{"id":37,"name":"Sweetwaters Coffee & Tea","address":"3220 Teasley Ln #120, Denton"}},{"type":"Feature","geometry":{"type":"Point","coordinates":[-97.23779239999999,32.8580949]},"properties":{"id":38,"name":"151 Coffee","address":"6244 Rufe Snow Dr, Fort Worth"}},{"type":"Feature","geometry":{"type":"Point","coordinates":[-97.1315302,32.9123571]},"properties":{"id":39,"name":"Scooter's Coffee","address":"7171 Colleyville Blvd #110, Colleyville"}},{"type":"Feature","geometry":{"type":"Point","coordinates":[-96.93448719999999,33.1637705]},"properties":{"id":40,"name":"TURBO Coffee - N20 at The Elm","address":"301 E Eldorado Pkwy 4th Floor, Little Elm"}},{"type":"Feature","geometry":{"type":"Point","coordinates":[-97.0111443,33.0458495]},"properties":{"id":41,"name":"151 Coffee","address":"720 W Main St, Lewisville"}},{"type":"Feature","geometry":{"type":"Point","coordinates":[-97.13227649999999,33.2148501]},"properties":{"id":42,"name":"Jupiter House","address":"106 N Locust St, Denton"}},{"type":"Feature","geometry":{"type":"Point","coordinates":[-96.9646739,32.8843605]},"properties":{"id":43,"name":"Totally Tea & Coffee","address":"5483 N MacArthur Blvd, Irving"}},{"type":"Feature","geometry":{"type":"Point","coordinates":[-97.31600639999999,32.8605484]},"properties":{"id":44,"name":"Starbucks","address":"3030 Western Center Blvd, Fort Worth"}},{"type":"Feature","geometry":{"type":"Point","coordinates":[-97.0064068,32.9536392]},"properties":{"id":45,"name":"GEORGE | COFFEE + PROVISIONS","address":"462 Houston St, Coppell"}},{"type":"Feature","geometry":{"type":"Point","coordinates":[-97.0711474,33.0318892]},"properties":{"id":46,"name":"151 Coffee","address":"3343 Long Prairie Rd, Flower Mound"}},{"type":"Feature","geometry":{"type":"Point","coordinates":[-97.1304915,32.942393]},"properties":{"id":47,"name":"Starbucks","address":"1403 Main Street, Square, Southlake"}},{"type":"Feature","geometry":{"type":"Point","coordinates":[-97.21746879999999,32.9340857]},"properties":{"id":48,"name":"151 Coffee","address":"1510 Keller Pkwy, Keller"}},{"type":"Feature","geometry":{"type":"Point","coordinates":[-97.0848717,32.94078289999999]},"properties":{"id":49,"name":"Scooter's Coffee","address":"897 W Northwest Hwy, Grapevine"}},{"type":"Feature","geometry":{"type":"Point","coordinates":[-97.2569006,32.892859]},"properties":{"id":50,"name":"Melby's Coffee & Tea House","address":"8420 Denton Hwy #111, Watauga"}},{"type":"Feature","geometry":{"type":"Point","coordinates":[-97.24067439999999,32.8471542]},"properties":{"id":51,"name":"PJ'S Coffee","address":"5555 Rufe Snow Dr Ste 100, North Richland Hills"}},{"type":"Feature","geometry":{"type":"Point","coordinates":[-96.986515,33.2261811]},"properties":{"id":52,"name":"Starbucks","address":"11450 E University Dr, Cross Roads"}},{"type":"Feature","geometry":{"type":"Point","coordinates":[-97.42657319999999,32.8638978]},"properties":{"id":53,"name":"Starbucks","address":"7017 Boat Club Rd, Fort Worth"}},{"type":"Feature","geometry":{"type":"Point","coordinates":[-97.1325007,33.0921989]},"properties":{"id":54,"name":"Marty B's Coffee","address":"2656 FM 407, Bartonville"},"id":54},{"type":"Feature","geometry":{"type":"Point","coordinates":[-96.984667,33.0041275]},"properties":{"id":55,"name":"Coral Reef Coffee Company","address":"310 E Round Grove Rd Suite #300, Lewisville"}},{"type":"Feature","geometry":{"type":"Point","coordinates":[-96.9527325,32.941439]},"properties":{"id":56,"name":"Haraz Coffee House","address":"10009 N MacArthur Blvd # 101, Irving"}},{"type":"Feature","geometry":{"type":"Point","coordinates":[-97.18085529999999,32.8612354]},"properties":{"id":57,"name":"Scooter's Coffee","address":"706 Grapevine Hwy, Hurst"}},{"type":"Feature","geometry":{"type":"Point","coordinates":[-97.1552062,32.8791874]},"properties":{"id":58,"name":"WFM Coffee Bar","address":"4801 Colleyville Blvd, Colleyville"}},{"type":"Feature","geometry":{"type":"Point","coordinates":[-97.220083,33.0125454]},"properties":{"id":59,"name":"151 Coffee","address":"1200 US-377, Roanoke"}},{"type":"Feature","geometry":{"type":"Point","coordinates":[-96.95727199999999,32.859819]},"properties":{"id":60,"name":"Starbucks","address":"4010 N MacArthur Blvd, Irving"}},{"type":"Feature","geometry":{"type":"Point","coordinates":[-97.0981051,32.8398203]},"properties":{"id":61,"name":"Cuppa Espresso Bar at Cross City","address":"Located inside Cross City Church, 1000 Airport Fwy, Euless"}},{"type":"Feature","geometry":{"type":"Point","coordinates":[-97.26810549999999,32.87354699999999]},"properties":{"id":62,"name":"World Blend Coffee - Ice Cream - Ship & Copy","address":"5410 Basswood Blvd, Fort Worth"}},{"type":"Feature","geometry":{"type":"Point","coordinates":[-97.0438337,32.8993167]},"properties":{"id":63,"name":"Lavazza Coffee","address":"2400 Aviation Dr, Dallas"}},{"type":"Feature","geometry":{"type":"Point","coordinates":[-97.1461602,32.8695824]},"properties":{"id":64,"name":"Grace Coffee Community","address":"7744 Blue Mound Road, Fort Worth"}},{"type":"Feature","geometry":{"type":"Point","coordinates":[-97.1299963,32.9541284]},"properties":{"id":65,"name":"XO Press","address":"1021 Grace Ln, Southlake"}},{"type":"Feature","geometry":{"type":"Point","coordinates":[-96.9832421,32.9369355]},"properties":{"id":66,"name":"Ascension Coffee - The Sound","address":"3121 Olympus Blvd, Coppell"}},{"type":"Feature","geometry":{"type":"Point","coordinates":[-97.18053239999999,32.9402663]},"properties":{"id":67,"name":"Graduate Coffee","address":"1901 W Southlake Blvd Ste 100, Southlake"}},{"type":"Feature","geometry":{"type":"Point","coordinates":[-97.082258,32.84432]},"properties":{"id":68,"name":"Society Coffee","address":"600 N Main St, Euless"}},{"type":"Feature","geometry":{"type":"Point","coordinates":[-97.2645742,32.8583861]},"properties":{"id":69,"name":"Starbucks","address":"6151 Denton Hwy, Haltom City"}},{"type":"Feature","geometry":{"type":"Point","coordinates":[-97.10190999999999,33.145824]},"properties":{"id":70,"name":"Starbucks","address":"5021 Teasley Ln, Denton"}},{"type":"Feature","geometry":{"type":"Point","coordinates":[-97.1059595,33.1476071]},"properties":{"id":71,"name":"Starbucks","address":"4910 Teasley Ln, Denton"}},{"type":"Feature","geometry":{"type":"Point","coordinates":[-97.2309064,32.933908]},"properties":{"id":72,"name":"Starbucks","address":"962 Keller Pkwy, Keller"}},{"type":"Feature","geometry":{"type":"Point","coordinates":[-96.9928162,32.850112]},"properties":{"id":73,"name":"Starbucks","address":"3301 N Belt Line Rd, Irving"}},{"type":"Feature","geometry":{"type":"Point","coordinates":[-97.25408089999999,32.9339349]},"properties":{"id":74,"name":"Starbucks","address":"104 S Main St, Keller"}},{"type":"Feature","geometry":{"type":"Point","coordinates":[-97.16214409999999,33.2303334]},"properties":{"id":75,"name":"Starbucks","address":"2320 W University Dr, Denton"}},{"type":"Feature","geometry":{"type":"Point","coordinates":[-97.38427539999999,32.8830684]},"properties":{"id":76,"name":"Starbucks","address":"1409 N Saginaw Blvd, Saginaw"}},{"type":"Feature","geometry":{"type":"Point","coordinates":[-97.03606649999999,32.8894352]},"properties":{"id":77,"name":"Peet's Coffee & Tea","address":"3200 E Airfield Drive, Dallas"}},{"type":"Feature","geometry":{"type":"Point","coordinates":[-97.22370049999999,33.0085752]},"properties":{"id":78,"name":"Starbucks","address":"105 Country View Dr, Roanoke"}},{"type":"Feature","geometry":{"type":"Point","coordinates":[-97.27094699999999,32.895823]},"properties":{"id":79,"name":"Starbucks","address":"5241 N Tarrant Pkwy, Fort Worth"}},{"type":"Feature","geometry":{"type":"Point","coordinates":[-97.1884876,32.9079433]},"properties":{"id":80,"name":"Starbucks","address":"8532 Davis Blvd, North Richland Hills"}},{"type":"Feature","geometry":{"type":"Point","coordinates":[-97.18413729999999,32.938202]},"properties":{"id":81,"name":"Starbucks","address":"2155 W Southlake Blvd, Southlake"}},{"type":"Feature","geometry":{"type":"Point","coordinates":[-96.9591698,32.9184093]},"properties":{"id":82,"name":"Starbucks","address":"7979 N MacArthur Blvd, Irving"}},{"type":"Feature","geometry":{"type":"Point","coordinates":[-97.185767,32.8386374]},"properties":{"id":83,"name":"Starbucks","address":"1498 Precinct Line Rd, Hurst"}},{"type":"Feature","geometry":{"type":"Point","coordinates":[-97.3417499,32.8694327]},"properties":{"id":84,"name":"Starbucks","address":"7052 N Blue Mound Rd, Fort Worth"}},{"type":"Feature","geometry":{"type":"Point","coordinates":[-97.1814141,32.98835]},"properties":{"id":85,"name":"Starbucks","address":"78 Andorra Dr, Westlake"}},{"type":"Feature","geometry":{"type":"Point","coordinates":[-97.0980737,32.8803762]},"properties":{"id":86,"name":"Starbucks","address":"3020 Hwy 121, Euless"}},{"type":"Feature","geometry":{"type":"Point","coordinates":[-97.11122900000001,32.938867]},"properties":{"id":87,"name":"Starbucks","address":"2645 E Southlake Blvd, Southlake"}},{"type":"Feature","geometry":{"type":"Point","coordinates":[-97.13624449999999,33.2302963]},"properties":{"id":88,"name":"Starbucks","address":"1445 W University Dr, Denton"}},{"type":"Feature","geometry":{"type":"Point","coordinates":[-97.0039425,33.0389601]},"properties":{"id":89,"name":"Starbucks","address":"699 S Stemmons Fwy, Lewisville"}},{"type":"Feature","geometry":{"type":"Point","coordinates":[-97.0812157,33.0658736]},"properties":{"id":90,"name":"Starbucks","address":"5871 Long Prairie Rd, Flower Mound"}},{"type":"Feature","geometry":{"type":"Point","coordinates":[-96.9926272,32.9711655]},"properties":{"id":91,"name":"Starbucks","address":"106 N Denton Tap Rd, Coppell"}},{"type":"Feature","geometry":{"type":"Point","coordinates":[-97.3241472,32.9015556]},"properties":{"id":92,"name":"Starbucks","address":"8917 Tehama Ridge Pkwy, Fort Worth"}},{"type":"Feature","geometry":{"type":"Point","coordinates":[-97.1049378,32.8804804]},"properties":{"id":93,"name":"Starbucks","address":"1401 W Glade Rd, Euless"}},{"type":"Feature","geometry":{"type":"Point","coordinates":[-97.04394200000002,32.9636749]},"properties":{"id":94,"name":"Latte Factory","address":"3000 Grapevine Mills Pkwy #109, Grapevine"}},{"type":"Feature","geometry":{"type":"Point","coordinates":[-96.99422,32.9705781]},"properties":{"id":95,"name":"TeaLatte Bar","address":"110 W Sandy Lake Rd #108, Coppell"}},{"type":"Feature","geometry":{"type":"Point","coordinates":[-96.90934159999999,32.9984549]},"properties":{"id":96,"name":"TeaLatte Bar","address":"3052 Old Denton Rd Apt 106, Carrollton"}},{"type":"Feature","geometry":{"type":"Point","coordinates":[-97.0711975,33.0346843]},"properties":{"id":97,"name":"TeaLatte Bar","address":"2701 Cross Timbers Rd Ste 238, Flower Mound"}},{"type":"Feature","geometry":{"type":"Point","coordinates":[-96.9613455,32.8868954]},"properties":{"id":98,"name":"Liberation Coffee Co.","address":"901 W Walnut Hill Ln, Irving"}},{"type":"Feature","geometry":{"type":"Point","coordinates":[-96.9719638,33.0025281]},"properties":{"id":99,"name":"Hannassi Tea latte","address":"2401 S Stemmons Fwy, Lewisville"}},{"type":"Feature","geometry":{"type":"Point","coordinates":[-96.9938758,32.9849541]},"properties":{"id":100,"name":"Liberation Coffee Co.","address":"651 N Denton Tap Rd #200, Coppell"}},{"type":"Feature","geometry":{"type":"Point","coordinates":[-97.1688966,32.9799586]},"properties":{"id":101,"name":"Sip Stir Coffee House","address":"1301 Solana Blvd Suite 4105, Westlake"}},{"type":"Feature","geometry":{"type":"Point","coordinates":[-97.0428068,32.966055]},"properties":{"id":102,"name":"Starbucks","address":"3000 Grapevine Mills Pkwy, Grapevine"}},{"type":"Feature","geometry":{"type":"Point","coordinates":[-97.1554166,32.8845647]},"properties":{"id":103,"name":"Temple Coffee & Eatery","address":"85 Village Ln STE 125, Colleyville"}},{"type":"Feature","geometry":{"type":"Point","coordinates":[-97.06460299999999,32.9944556]},"properties":{"id":104,"name":"Epic Gelato & Craft Coffee","address":"2400 Lakeside Pkwy #100, Flower Mound"}},{"type":"Feature","geometry":{"type":"Point","coordinates":[-97.1995817,32.8297345]},"properties":{"id":105,"name":"Latte Factory","address":"1101 Melbourne Rd Space TT39, Hurst"}},{"type":"Feature","geometry":{"type":"Point","coordinates":[-97.189225,33.1024779]},"properties":{"id":106,"name":"Kimzey's Coffee","address":"429 US-377, Argyle"},"id":106},{"type":"Feature","geometry":{"type":"Point","coordinates":[-97.1475565,32.8918831]},"properties":{"id":107,"name":"Black Rifle Coffee Company","address":"5695 Colleyville Blvd, Colleyville"}},{"type":"Feature","geometry":{"type":"Point","coordinates":[-97.30898289999999,32.91345]},"properties":{"id":108,"name":"Starbucks","address":"Alliance Town Center, 3300 Heritage Trace Pkwy, Fort Worth"}},{"type":"Feature","geometry":{"type":"Point","coordinates":[-96.9323983,33.0195289]},"properties":{"id":109,"name":"Tea Top Carrollton","address":"4070 State Hwy 121 Suite 408, Carrollton"}},{"type":"Feature","geometry":{"type":"Point","coordinates":[-97.1467661,33.2148182]},"properties":{"id":110,"name":"Aura Coffee","address":"1306 W Hickory St, Denton"}},{"type":"Feature","geometry":{"type":"Point","coordinates":[-97.06989519999999,33.0144721]},"properties":{"id":111,"name":"TRIO COFFEE dba Novel Coffee Roasters","address":"2650 Flower Mound Rd Suite 116, Flower Mound"}},{"type":"Feature","geometry":{"type":"Point","coordinates":[-97.0693441,33.0743124]},"properties":{"id":112,"name":"Sip Stir Coffee House","address":"2570 Justin Rd #140, Highland Village"}},{"type":"Feature","geometry":{"type":"Point","coordinates":[-97.2058902,32.9983463]},"properties":{"id":113,"name":"Starbucks","address":"501 Trophy Lake Dr, Trophy Club"}},{"type":"Feature","geometry":{"type":"Point","coordinates":[-97.08900969999999,32.9308859]},"properties":{"id":114,"name":"Starbucks","address":"1101 Ira E. Wds Ave, Grapevine"}},{"type":"Feature","geometry":{"type":"Point","coordinates":[-97.0795145,32.9186226]},"properties":{"id":115,"name":"Love Local Coffee Shop","address":"1900 S Main St # 103, Grapevine"}},{"type":"Feature","geometry":{"type":"Point","coordinates":[-96.9210031,32.9517676]},"properties":{"id":116,"name":"The Beanyard Coffee","address":"1615 W Belt Line Rd #110, Carrollton"}},{"type":"Feature","geometry":{"type":"Point","coordinates":[-97.017248,33.0067297]},"properties":{"id":117,"name":"Starbucks","address":"1075 W Round Grove Rd, FM3040, Lewisville"}},{"type":"Feature","geometry":{"type":"Point","coordinates":[-96.924936,33.2210262]},"properties":{"id":118,"name":"Starbucks","address":"740 Union Pl, Little Elm"}},{"type":"Feature","geometry":{"type":"Point","coordinates":[-97.0793159,32.9414157]},"properties":{"id":119,"name":"RE:defined Coffee House","address":"200 W Northwest Hwy, Grapevine"}},{"type":"Feature","geometry":{"type":"Point","coordinates":[-97.30441429999999,33.0453984]},"properties":{"id":120,"name":"Coffee Cabana of Texas","address":"17001 G Cardinas Rd, Justin"},"id":120},{"type":"Feature","geometry":{"type":"Point","coordinates":[-97.04484959999999,32.9049185]},"properties":{"id":121,"name":"Starbucks","address":"3200 East Airfield Drive, Dallas"}},{"type":"Feature","geometry":{"type":"Point","coordinates":[-97.1375613,33.2304479]},"properties":{"id":122,"name":"Caf√© Brazil","address":"501 W University Dr, Denton"}},{"type":"Feature","geometry":{"type":"Point","coordinates":[-96.94555059999999,32.8363827]},"properties":{"id":123,"name":"Country Cafe","address":"110 W Airport Fwy, Irving"}},{"type":"Feature","geometry":{"type":"Point","coordinates":[-96.99395349999999,32.9889454]},"properties":{"id":124,"name":"Black Walnut Cafe","address":"775 N Denton Tap Rd, Coppell"}},{"type":"Feature","geometry":{"type":"Point","coordinates":[-97.3435361,32.8406059]},"properties":{"id":125,"name":"Blue Mound Cafe - Saginaw","address":"5401 Blue Mound Rd, Fort Worth"}},{"type":"Feature","geometry":{"type":"Point","coordinates":[-96.9356667,33.2215514]},"properties":{"id":126,"name":"Starwood Cafe","address":"26735 US-380, Aubrey"}},{"type":"Feature","geometry":{"type":"Point","coordinates":[-96.9924834,33.0461414]},"properties":{"id":127,"name":"Main Street Cafe","address":"208 E Main St, Lewisville"}},{"type":"Feature","geometry":{"type":"Point","coordinates":[-97.08600109999999,33.0724046]},"properties":{"id":128,"name":"Corner Bakery","address":"3640 Justin Rd Suite 190, Highland Village"}},{"type":"Feature","geometry":{"type":"Point","coordinates":[-96.9324287,33.02009200000001]},"properties":{"id":129,"name":"PETIT FOUR Dessert Cafe","address":"4070 State Hwy 121 #420, Carrollton"}},{"type":"Feature","geometry":{"type":"Point","coordinates":[-97.184342,32.840607]},"properties":{"id":130,"name":"Tropical Smoothie Cafe","address":"760 Airport Fwy Suite 400, Hurst"}},{"type":"Feature","geometry":{"type":"Point","coordinates":[-97.319302,32.904195]},"properties":{"id":131,"name":"Tropical Smoothie Cafe","address":"2700 Presidio Vista Dr Suite 120, Fort Worth"}},{"type":"Feature","geometry":{"type":"Point","coordinates":[-96.914615,33.020485]},"properties":{"id":132,"name":"Tropical Smoothie Cafe","address":"1004 E Hebron Pkwy, Carrollton"}},{"type":"Feature","geometry":{"type":"Point","coordinates":[-96.959469,32.907501]},"properties":{"id":133,"name":"Corner Bakery","address":"7403 N MacArthur Blvd, Irving"}},{"type":"Feature","geometry":{"type":"Point","coordinates":[-97.265041,32.895645]},"properties":{"id":134,"name":"Tropical Smoothie Cafe","address":"5605 N Tarrant Pkwy, Fort Worth"}},{"type":"Feature","geometry":{"type":"Point","coordinates":[-97.07394099999999,33.016044]},"properties":{"id":135,"name":"Tropical Smoothie Cafe","address":"2840 Flower Mound Rd, Flower Mound"}},{"type":"Feature","geometry":{"type":"Point","coordinates":[-96.9197666,32.9017721]},"properties":{"id":136,"name":"Club Cafe","address":"11611 Luna Rd, Farmers Branch"}},{"type":"Feature","geometry":{"type":"Point","coordinates":[-97.0987529,33.17471560000001]},"properties":{"id":137,"name":"Sidewalk Cafe","address":"2900 Wind River Ln, Denton"}},{"type":"Feature","geometry":{"type":"Point","coordinates":[-97.152529,32.941865]},"properties":{"id":138,"name":"Tropical Smoothie Cafe","address":"100 W Southlake Blvd #80, Southlake"}},{"type":"Feature","geometry":{"type":"Point","coordinates":[-97.1319853,32.9413526]},"properties":{"id":139,"name":"Corner Bakery","address":"100 State St, Southlake"}},{"type":"Feature","geometry":{"type":"Point","coordinates":[-96.9122795,32.9862427]},"properties":{"id":140,"name":"Cocohodo Dallas Cafe","address":"2625 Old Denton Rd suite 340, Carrollton"}},{"type":"Feature","geometry":{"type":"Point","coordinates":[-96.9198605,32.8463738]},"properties":{"id":141,"name":"Haggar Cafe","address":"Irving"}},{"type":"Feature","geometry":{"type":"Point","coordinates":[-96.9210509,32.9843942]},"properties":{"id":142,"name":"Parks Coffee Roastery & Cafe","address":"1401 Mac Arthur Dr, Carrollton"}},{"type":"Feature","geometry":{"type":"Point","coordinates":[-97.2042331,32.8335094]},"properties":{"id":143,"name":"Sports Cafe","address":"North Richland Hills"}},{"type":"Feature","geometry":{"type":"Point","coordinates":[-96.9395894,32.8703634]},"properties":{"id":144,"name":"The Cafe at Williams Square","address":"5205 N O'Connor Blvd Suite 105, Irving"}},{"type":"Feature","geometry":{"type":"Point","coordinates":[-96.9380901,32.8694757]},"properties":{"id":145,"name":"Pax & Beneficia Coffee - Las Colinas | Irving","address":"5244 N O'Connor Blvd #150, Irving"}},{"type":"Feature","geometry":{"type":"Point","coordinates":[-96.9341209,32.8624841]},"properties":{"id":146,"name":"Waterway Cafe","address":"433 E Las Colinas Blvd, Irving"}},{"type":"Feature","geometry":{"type":"Point","coordinates":[-97.29699219999999,33.0882952]},"properties":{"id":147,"name":"The Cafe in Justin","address":"417 N Sealy Ave, Justin"},"id":147},{"type":"Feature","geometry":{"type":"Point","coordinates":[-96.9635725,32.88766]},"properties":{"id":148,"name":"Cafe Hana","address":"1030 W John Carpenter Fwy #150, Irving"}},{"type":"Feature","geometry":{"type":"Point","coordinates":[-97.1350114,32.9403858]},"properties":{"id":149,"name":"Cream and Crepes Cafe","address":"1151 E Southlake Blvd #330, Southlake"}},{"type":"Feature","geometry":{"type":"Point","coordinates":[-97.2717804,32.9118275]},"properties":{"id":150,"name":"Yummy Cafe & Sweets","address":"9500 Ray White Rd # 127, Fort Worth"}},{"type":"Feature","geometry":{"type":"Point","coordinates":[-97.08001469999999,33.0678692]},"properties":{"id":151,"name":"SUCCESS Space Cafe","address":"6050 Long Prairie Rd SUITE 100, Flower Mound"},"id":151},{"type":"Feature","geometry":{"type":"Point","coordinates":[-96.9865641,33.3036249]},"properties":{"id":152,"name":"Upper Park Cafe","address":"200 S Main St, Aubrey"}},{"type":"Feature","geometry":{"type":"Point","coordinates":[-96.95202259999999,32.8397138]},"properties":{"id":153,"name":"Good Day Cafe Irving","address":"2301 N O'Connor Rd Suit M, Irving"}},{"type":"Feature","geometry":{"type":"Point","coordinates":[-97.10817709999999,32.8535156]},"properties":{"id":154,"name":"Oldwest Cafe of Bedford","address":"2900 Hwy 121, Bedford"}},{"type":"Feature","geometry":{"type":"Point","coordinates":[-97.1724284,33.3624909]},"properties":{"id":155,"name":"Bear's Cafe","address":"303 Bolivar St, Sanger"}},{"type":"Feature","geometry":{"type":"Point","coordinates":[-97.31829359999999,32.9168234]},"properties":{"id":156,"name":"Just Love Coffee Cafe - Victory Shops","address":"9749 N Fwy, Fort Worth"}},{"type":"Feature","geometry":{"type":"Point","coordinates":[-96.91044149999999,32.9845306]},"properties":{"id":157,"name":"Ecclesia Bakery & Cafe - Carrollton","address":"2625 Old Denton Rd #820, Carrollton"}},{"type":"Feature","geometry":{"type":"Point","coordinates":[-96.933979,33.220036]},"properties":{"id":158,"name":"Tropical Smoothie Cafe","address":"26742 E University Dr, Little Elm"}},{"type":"Feature","geometry":{"type":"Point","coordinates":[-97.21725099999999,32.934602]},"properties":{"id":159,"name":"Tropical Smoothie Cafe","address":"1521 Keller Pkwy Ste 100, Keller"}},{"type":"Feature","geometry":{"type":"Point","coordinates":[-96.95792589999999,32.8989771]},"properties":{"id":160,"name":"Tropical Smoothie Cafe","address":"6550 N MacArthur Blvd #120, Irving"}},{"type":"Feature","geometry":{"type":"Point","coordinates":[-97.151868,33.229094]},"properties":{"id":161,"name":"Tropical Smoothie Cafe","address":"1807 W University Dr, Denton"}},{"type":"Feature","geometry":{"type":"Point","coordinates":[-97.1078749,32.9251544]},"properties":{"id":162,"name":"Cafe Italia","address":"2647 Ira E. Wds Ave, Grapevine"}},{"type":"Feature","geometry":{"type":"Point","coordinates":[-97.089665,33.071435]},"properties":{"id":163,"name":"Tropical Smoothie Cafe","address":"8401 Justin Rd, Double Oak"},"id":163},{"type":"Feature","geometry":{"type":"Point","coordinates":[-97.2334353,32.9923323]},"properties":{"id":164,"name":"Tropical Smoothie Cafe","address":"720 S Hwy 377 Suite 100, Roanoke"}},{"type":"Feature","geometry":{"type":"Point","coordinates":[-96.9789415,32.8379108]},"properties":{"id":165,"name":"Starbucks","address":"2501 W Airport Fwy, Irving"}},{"type":"Feature","geometry":{"type":"Point","coordinates":[-97.1479126,32.8873811]},"properties":{"id":166,"name":"Black Walnut Cafe","address":"1205 Church St, Colleyville"}},{"type":"Feature","geometry":{"type":"Point","coordinates":[-97.15019339999999,33.2064818]},"properties":{"id":167,"name":"Froth Coffee & Dessert Bar Denton LLC","address":"1611 Eagle Dr Suite 113, Denton"}},{"type":"Feature","geometry":{"type":"Point","coordinates":[-97.16514719999999,33.2303238]},"properties":{"id":168,"name":"Panera Bread","address":"2510 W University Dr, Denton"}},{"type":"Feature","geometry":{"type":"Point","coordinates":[-96.9315852,33.0202224]},"properties":{"id":169,"name":"Starbucks","address":"1513 W Hebron Pkwy, Carrollton"}},{"type":"Feature","geometry":{"type":"Point","coordinates":[-97.18475099999999,32.848403]},"properties":{"id":170,"name":"Panera Bread","address":"1804 Precinct Line Rd, Hurst"}},{"type":"Feature","geometry":{"type":"Point","coordinates":[-96.973587,33.0060194]},"properties":{"id":171,"name":"Panera Bread","address":"595 E Round Grove Rd, Lewisville"}},{"type":"Feature","geometry":{"type":"Point","coordinates":[-96.99428379999999,32.9190348]},"properties":{"id":172,"name":"Thai Tea Asian Fusion Cafe","address":"8251 N Belt Line Rd, Irving"}},{"type":"Feature","geometry":{"type":"Point","coordinates":[-97.0689779,33.0132337]},"properties":{"id":173,"name":"Snowy Bingsu & Boba","address":"2601 Flower Mound Rd #111, Flower Mound"}},{"type":"Feature","geometry":{"type":"Point","coordinates":[-97.23026829999999,33.1064619]},"properties":{"id":174,"name":"Farmhouse Coffee & Treasures","address":"1300 Homestead Way, Argyle"},"id":174},{"type":"Feature","properties":{"marker-color":"#1c5932","marker-size":"medium","marker-symbol":"cafe","name":"Timekeeper's Haus","id":178},"geometry":{"coordinates":[-97.23504427657171,33.13097255140205],"type":"Point"},"id":175},{"type":"Feature","geometry":{"type":"Point","coordinates":[-97.28144581829838,33.02564523168062]},"properties":{"name":"Champ Donut Company","address":"3556 TX-114 #402, Fort Worth, TX 76177","id":179},"id":176},{"type":"Feature","properties":{"stroke":"#555555","stroke-width":2,"stroke-opacity":1,"fill":"#fb0404","fill-opacity":0.5,"id":180},"geometry":{"type":"Polygon","coordinates":[[[-97.23371531116045,33.241179481034166],[-97.24681463221584,33.240640564032944],[-97.25978731971753,33.23902902291537],[-97.27250797822776,33.23636043639754],[-97.2848536758929,33.23266059971977],[-97.29670514476663,33.227965272533055],[-97.30794794378936,33.22231982955001],[-97.31847357266619,33.21577881751882],[-97.3281805254625,33.20840542302263],[-97.33697527343702,33.20027085649813],[-97.34477316744874,33.191453658695735],[-97.35149925118841,33.1820389365612],[-97.35708897748837,33.17211753619674],[-97.36148882103544,33.161785161152494],[-97.36465678193954,33.15114144480168],[-97.36656277577615,33.140288985960495],[-97.36718890691039,33.129332357224925],[-97.36652962310762,33.11837709570959],[-97.3645917506279,33.10752868598838],[-97.36139441017345,33.09689154505402],[-97.356968815201,33.08656801903634],[-97.3513579552109,33.07665740124919],[-97.3446161676748,33.06725498087812],[-97.3368086032558,33.05845113127866],[-97.32801058990256,33.05033044643476],[-97.31830690225581,33.04297093363239],[-97.30779094359197,33.03644326984178],[-97.29656384823588,33.03081012867853],[-97.2847335130067,33.026125584135585],[-97.27241356681252,33.02243459655083],[-97.25972228798247,33.01977258550578],[-97.24678147931814,33.018165093545825],[-97.23371531116045,33.017627543778076],[-97.22064914300275,33.018165093545825],[-97.20770833433843,33.01977258550578],[-97.19501705550839,33.02243459655083],[-97.1826971093142,33.026125584135585],[-97.17086677408501,33.03081012867853],[-97.15963967872894,33.03644326984178],[-97.14912372006508,33.04297093363239],[-97.13942003241833,33.05033044643476],[-97.13062201906509,33.05845113127866],[-97.1228144546461,33.06725498087812],[-97.11607266710999,33.07665740124919],[-97.11046180711989,33.08656801903634],[-97.10603621214744,33.09689154505402],[-97.102838871693,33.10752868598838],[-97.10090099921327,33.11837709570959],[-97.10024171541052,33.129332357224925],[-97.10086784654474,33.140288985960495],[-97.10277384038136,33.15114144480168],[-97.10594180128545,33.161785161152494],[-97.11034164483252,33.17211753619674],[-97.11593137113249,33.1820389365612],[-97.12265745487215,33.191453658695735],[-97.13045534888388,33.20027085649813],[-97.13925009685842,33.20840542302263],[-97.1489570496547,33.21577881751882],[-97.15948267853155,33.22231982955001],[-97.17072547755426,33.227965272533055],[-97.18257694642799,33.23266059971977],[-97.19492264409314,33.23636043639754],[-97.20764330260336,33.23902902291537],[-97.22061599010506,33.240640564032944],[-97.23371531116045,33.241179481034166]]]},"id":180}]}