{"type":"FeatureCollection","features":[{"type":"Feature","geometry":{"type":"Polygon","coordinates":[[[-97.23372386848219,33.37122436823121],[-97.1776904449388,33.367117613249874],[-97.12337498211934,33.35492327231432],[-97.07244135375937,33.335015150826955],[-97.02644713844298,33.308003173918905],[-96.98679508148427,33.2747142378189],[-96.954689849798,33.236166333142044],[-96.93110146672963,33.19353681973388],[-96.91673652752702,33.148125914733384],[-96.91201797923911,33.10131659298325],[-96.91707392116984,33.05453218895482],[-96.93173556161585,33.00919303191239],[-96.95554416817842,32.96667344343839],[-96.98776658298982,32.92826038278746],[-97.02741864685333,32.89511494607267],[-97.07329568962342,32.86823781576549],[-97.1240090968872,32.848439623157326],[-97.17802785155847,32.83631703364902],[-97.23372386848219,32.832235197759495],[-97.28941988540592,32.83631703364902],[-97.34343864007718,32.848439623157326],[-97.39415204734097,32.86823781576549],[-97.44002909011105,32.89511494607267],[-97.47968115397457,32.92826038278746],[-97.51190356878597,32.96667344343839],[-97.53571217534854,33.00919303191239],[-97.55037381579454,33.05453218895482],[-97.55542975772528,33.10131659298325],[-97.55071120943737,33.148125914733384],[-97.53634627023476,33.19353681973388],[-97.51275788716639,33.236166333142044],[-97.48065265548011,33.2747142378189],[-97.44100059852141,33.308003173918905],[-97.39500638320501,33.335015150826955],[-97.34407275484504,33.35492327231432],[-97.28975729202558,33.367117613249874],[-97.23372386848219,33.37122436823121]]]},"properties":{"name":"Search Area","radius":30000},"id":0},{"type":"Feature","geometry":{"type":"Point","coordinates":[-96.9179784,32.8981006]},"properties":{"id":1,"name":"J's Deli Breakfast, Sandwiches, Burgers, and Salads","address":"11482 Luna Rd #150, Farmers Branch"}},{"type":"Feature","geometry":{"type":"Point","coordinates":[-96.988663,32.8943485]},"properties":{"id":2,"name":"Sara's Deli","address":"3001 Gateway Dr # 110, Irving"}},{"type":"Feature","geometry":{"type":"Point","coordinates":[-97.0057458,32.954596]},"properties":{"id":3,"name":"Coppell Deli","address":"449 W Bethel Rd, Coppell"}},{"type":"Feature","geometry":{"type":"Point","coordinates":[-97.1323332,32.8351055]},"properties":{"id":4,"name":"Jason's Deli","address":"2200 Airport Fwy, Bedford"}},{"type":"Feature","geometry":{"type":"Point","coordinates":[-96.9576609,32.9095872]},"properties":{"id":5,"name":"Panera Bread","address":"7600 N MacArthur Blvd Suite 100, Irving"}},{"type":"Feature","geometry":{"type":"Point","coordinates":[-96.94326699999999,32.86618139999999]},"properties":{"id":6,"name":"Corner Bakery","address":"118 E John W Carpenter Fwy # 100, Irving"}},{"type":"Feature","geometry":{"type":"Point","coordinates":[-96.973587,33.0060194]},"properties":{"id":7,"name":"Panera Bread","address":"595 E Round Grove Rd, Lewisville"}},{"type":"Feature","geometry":{"type":"Point","coordinates":[-97.1165666,32.9200885]},"properties":{"id":8,"name":"Subway","address":"3105 Ira E. Wds Ave Suite 128, Grapevine"}},{"type":"Feature","geometry":{"type":"Point","coordinates":[-97.1319853,32.9413526]},"properties":{"id":9,"name":"Corner Bakery","address":"100 State St, Southlake"}},{"type":"Feature","geometry":{"type":"Point","coordinates":[-96.9957094,32.9257154]},"properties":{"id":10,"name":"Panera Bread","address":"140 W Lyndon B Johnson Fwy, Coppell"}},{"type":"Feature","geometry":{"type":"Point","coordinates":[-97.044302,33.1303931]},"properties":{"id":11,"name":"The Original Joey O's","address":"4271 FM2181 #308, Corinth"}},{"type":"Feature","geometry":{"type":"Point","coordinates":[-97.290966,32.85948]},"properties":{"id":12,"name":"Boopa's Bagel Deli","address":"6513 N Beach St, Fort Worth"}},{"type":"Feature","geometry":{"type":"Point","coordinates":[-97.1021854,32.8823741]},"properties":{"id":13,"name":"NYC Bagel & Sandwich Shop","address":"3930 Glade Rd STE #100, Colleyville"}},{"type":"Feature","geometry":{"type":"Point","coordinates":[-97.04480319999999,32.8978141]},"properties":{"id":14,"name":"Subway","address":"Dallas Fort Worth International Airport, 2400 Aviation Drive North Airport,Terminal D#D-2sv115"}},{"type":"Feature","geometry":{"type":"Point","coordinates":[-96.95804919999999,32.8991105]},"properties":{"id":15,"name":"Jersey Mike's Subs","address":"6550 N MacArthur Blvd Suite 140, Irving"}},{"type":"Feature","geometry":{"type":"Point","coordinates":[-97.3415886,32.870408]},"properties":{"id":16,"name":"Jersey Mike's Subs","address":"1624 Basswood Blvd, Fort Worth"}},{"type":"Feature","geometry":{"type":"Point","coordinates":[-96.9594528,32.9122753]},"properties":{"id":17,"name":"Potbelly","address":"7717 N MacArthur Blvd Ste 150 Ste 150, Irving"}},{"type":"Feature","geometry":{"type":"Point","coordinates":[-97.04492289999999,32.9050657]},"properties":{"id":18,"name":"Subway","address":"Terminal B, Gate 24, Fort Worth"}},{"type":"Feature","geometry":{"type":"Point","coordinates":[-97.2597908,32.8846337]},"properties":{"id":19,"name":"Jersey Mike's Subs","address":"7608 Denton Hwy Suite 300, Watauga"}},{"type":"Feature","geometry":{"type":"Point","coordinates":[-97.31888269999999,32.9005639]},"properties":{"id":20,"name":"Potbelly","address":"8901 N Fwy Ste 101 Ste 101, Fort Worth"}},{"type":"Feature","geometry":{"type":"Point","coordinates":[-96.994085,32.9668872]},"properties":{"id":21,"name":"Jersey Mike's Subs","address":"143 S Denton Tap Rd, Coppell"}},{"type":"Feature","geometry":{"type":"Point","coordinates":[-96.9398353,32.8674079]},"properties":{"id":22,"name":"Subz N Stuff Gourmet Deli","address":"Across from the Omni Mandalay, Mandalay Tower 1 Retail Storefront area, 220 E Las Colinas Blvd Ste. 268, Irving"}},{"type":"Feature","geometry":{"type":"Point","coordinates":[-96.99301039999999,32.8390363]},"properties":{"id":23,"name":"Potbelly","address":"2350 N Belt Line Rd, Irving"}},{"type":"Feature","geometry":{"type":"Point","coordinates":[-97.1497347,33.2065536]},"properties":{"id":24,"name":"Cheba Hut \"Toasted\" Subs","address":"1611 Eagle Dr Suite 109, Denton"}},{"type":"Feature","geometry":{"type":"Point","coordinates":[-97.151003,33.2063726]},"properties":{"id":25,"name":"New York Sub Hub","address":"906 Avenue C, Denton"}},{"type":"Feature","geometry":{"type":"Point","coordinates":[-97.1854139,32.8381705]},"properties":{"id":26,"name":"Potbelly","address":"1460 Precinct Line Rd, Hurst"}},{"type":"Feature","geometry":{"type":"Point","coordinates":[-97.1514255,32.8377954]},"properties":{"id":27,"name":"The Colossal Sandwich Shop","address":"1220 Airport Fwy Ste J, Bedford"}},{"type":"Feature","geometry":{"type":"Point","coordinates":[-97.1346757,32.9397605]},"properties":{"id":28,"name":"Potbelly","address":"1161 E Southlake Blvd Ste 200 Ste 200, Southlake"}},{"type":"Feature","geometry":{"type":"Point","coordinates":[-96.9434234,32.8660386]},"properties":{"id":29,"name":"Jimmy John's","address":"118 E John W Carpenter Fwy #120, Irving"}},{"type":"Feature","geometry":{"type":"Point","coordinates":[-97.07799279999999,32.940843]},"properties":{"id":30,"name":"Grapevine Subs & More","address":"104 Jenkins St #5369, Grapevine"}},{"type":"Feature","geometry":{"type":"Point","coordinates":[-97.07024919999999,33.0377019]},"properties":{"id":31,"name":"Schlotzsky's","address":"3851 Long Prairie Rd, Flower Mound"}},{"type":"Feature","geometry":{"type":"Point","coordinates":[-97.0860883,33.0714824]},"properties":{"id":32,"name":"Jersey Mike's Subs","address":"3651 Justin Rd #110, Flower Mound"}},{"type":"Feature","geometry":{"type":"Point","coordinates":[-96.9815328,33.0053492]},"properties":{"id":33,"name":"Potbelly","address":"401 E Round Grove Rd, Lewisville"}},{"type":"Feature","geometry":{"type":"Point","coordinates":[-97.15875439999999,33.2301206]},"properties":{"id":34,"name":"Jersey Mike's Subs","address":"2200 W University Dr #130, Denton"}},{"type":"Feature","geometry":{"type":"Point","coordinates":[-96.95933,32.909836]},"properties":{"id":35,"name":"Firehouse Subs Macarthur Park","address":"7601 N MacArthur Blvd #140, Irving"}},{"type":"Feature","geometry":{"type":"Point","coordinates":[-96.9929275,32.8407001]},"properties":{"id":36,"name":"Firehouse Subs South Irving","address":"2450 N Belt Line Rd, Irving"}},{"type":"Feature","geometry":{"type":"Point","coordinates":[-97.07777980000002,32.9204991]},"properties":{"id":37,"name":"Schlotzsky's","address":"1801 S Main St, Grapevine"}},{"type":"Feature","geometry":{"type":"Point","coordinates":[-96.9675546,32.9203707]},"properties":{"id":38,"name":"Charleys Cheesesteaks and Wings","address":"1635 Market Pl Blvd, Irving"}},{"type":"Feature","geometry":{"type":"Point","coordinates":[-97.1582246,33.2302184]},"properties":{"id":39,"name":"McAlister's Deli","address":"2200 W University Dr Suite 190, Denton"}},{"type":"Feature","geometry":{"type":"Point","coordinates":[-96.97918,33.005093]},"properties":{"id":40,"name":"Firehouse Subs Lewisville","address":"2325 S Stemmons Fwy Ste 308, Lewisville"}},{"type":"Feature","geometry":{"type":"Point","coordinates":[-96.9944115,32.921041]},"properties":{"id":41,"name":"McAlister's Deli","address":"3501 Regent Blvd, Irving"}},{"type":"Feature","geometry":{"type":"Point","coordinates":[-97.07129409999999,33.0343506]},"properties":{"id":42,"name":"Jersey Mike's Subs","address":"2701 Cross Timbers Rd Suite 202, Flower Mound"}},{"type":"Feature","geometry":{"type":"Point","coordinates":[-97.0999461,33.1918983]},"properties":{"id":43,"name":"Jersey Mike's Subs","address":"1800 S Loop 288 #392, Denton"}},{"type":"Feature","geometry":{"type":"Point","coordinates":[-96.99411429999999,32.9676005]},"properties":{"id":44,"name":"Schlotzsky's","address":"135 S Denton Tap Rd, Coppell"}},{"type":"Feature","geometry":{"type":"Point","coordinates":[-96.97597209999999,32.8408714]},"properties":{"id":45,"name":"Schlotzsky's","address":"2520 N Story Rd, Irving"}},{"type":"Feature","geometry":{"type":"Point","coordinates":[-97.13662749999999,33.2313108]},"properties":{"id":46,"name":"Schlotzsky's","address":"416 W University Dr, Denton"}},{"type":"Feature","geometry":{"type":"Point","coordinates":[-96.9775994,33.002637]},"properties":{"id":47,"name":"McAlister's Deli","address":"500 E Round Grove Rd, Lewisville"}},{"type":"Feature","geometry":{"type":"Point","coordinates":[-97.16683049999999,33.2307806]},"properties":{"id":48,"name":"Which Wich","address":"2700 W University Dr Suite 1054, Denton"}},{"type":"Feature","geometry":{"type":"Point","coordinates":[-96.9794643,33.0041402]},"properties":{"id":49,"name":"Schlotzsky's","address":"450 E Round Grove Rd Ste A1, Lewisville"}},{"type":"Feature","geometry":{"type":"Point","coordinates":[-97.1002544,33.1903508]},"properties":{"id":50,"name":"McAlister's Deli","address":"1931 S Loop 288 Suite 100, Denton"}},{"type":"Feature","geometry":{"type":"Point","coordinates":[-97.15588489999999,32.9415382]},"properties":{"id":51,"name":"Jersey Mike's Subs","address":"410 W Southlake Blvd #130, Southlake"}},{"type":"Feature","geometry":{"type":"Point","coordinates":[-97.23880179999999,32.8574786]},"properties":{"id":52,"name":"Schlotzsky's","address":"6237 Rufe Snow Dr Ste 520, Watauga"}},{"type":"Feature","geometry":{"type":"Point","coordinates":[-97.02560969999999,33.0417972]},"properties":{"id":53,"name":"Jimmy John's","address":"1286 W Main St, Lewisville"}},{"type":"Feature","geometry":{"type":"Point","coordinates":[-96.99099,32.921375]},"properties":{"id":54,"name":"Jersey Mike's Subs","address":"3351 Regent Blvd Ste. 130, Irving"}},{"type":"Feature","geometry":{"type":"Point","coordinates":[-97.1213934,32.836665]},"properties":{"id":55,"name":"Schlotzsky's","address":"2323 W Airport Fwy, Euless"}},{"type":"Feature","geometry":{"type":"Point","coordinates":[-97.14692180000002,33.2084067]},"properties":{"id":56,"name":"Which Wich UNT","address":"1416 Maple St, Denton"}},{"type":"Feature","geometry":{"type":"Point","coordinates":[-97.0849487,32.9286167]},"properties":{"id":57,"name":"Lennys Grill & Subs","address":"1231 William D Tate Ave Suite 200, Grapevine"}},{"type":"Feature","geometry":{"type":"Point","coordinates":[-97.06308399999999,32.9911321]},"properties":{"id":58,"name":"Honeybird Sandwiches, Donuts & Coffee","address":"801 International Pkwy Suite No. 520, Flower Mound"},"id":58},{"type":"Feature","geometry":{"type":"Point","coordinates":[-97.28947439999999,32.8595078]},"properties":{"id":59,"name":"Schlotzsky's","address":"6360 N Beach St, Haltom City"}},{"type":"Feature","geometry":{"type":"Point","coordinates":[-97.13446809999999,33.2102904]},"properties":{"id":60,"name":"Fat Shack","address":"508 S Elm St #109, Denton"}},{"type":"Feature","geometry":{"type":"Point","coordinates":[-97.10065449999999,32.8771706]},"properties":{"id":61,"name":"Potbelly","address":"2721 State Hwy 121, Euless"}},{"type":"Feature","geometry":{"type":"Point","coordinates":[-97.2202725,32.9349607]},"properties":{"id":62,"name":"Jersey Mike's Subs","address":"1431 Keller Pkwy #600, Keller"}},{"type":"Feature","geometry":{"type":"Point","coordinates":[-97.13524199999999,33.2305678]},"properties":{"id":63,"name":"New York Sub-Way","address":"305 W University Dr, Denton"}},{"type":"Feature","geometry":{"type":"Point","coordinates":[-97.0981407,32.8794119]},"properties":{"id":64,"name":"Schlotzsky's","address":"2830 Hwy 121, Euless"}},{"type":"Feature","geometry":{"type":"Point","coordinates":[-97.0821694,33.0697535]},"properties":{"id":65,"name":"Firehouse Subs Flower Mound","address":"6100 Long Prairie Rd #150A, Flower Mound"}},{"type":"Feature","geometry":{"type":"Point","coordinates":[-97.14603149999999,33.2143212]},"properties":{"id":66,"name":"Jimmy John's","address":"107 Ave A, Denton"}},{"type":"Feature","geometry":{"type":"Point","coordinates":[-97.1178822,32.9413658]},"properties":{"id":67,"name":"McAlister's Deli","address":"100 N Kimball Ave #110, Southlake"}},{"type":"Feature","geometry":{"type":"Point","coordinates":[-97.19153999999999,32.852436]},"properties":{"id":68,"name":"Firehouse Subs N. Richland Hills","address":"6020 Parker Blvd, North Richland Hills"}},{"type":"Feature","geometry":{"type":"Point","coordinates":[-97.1061587,33.1869799]},"properties":{"id":69,"name":"Jimmy John's","address":"2219 S Loop 288 Ste. 104, Denton"}},{"type":"Feature","geometry":{"type":"Point","coordinates":[-97.08258719999999,33.0728814]},"properties":{"id":70,"name":"McAlister's Deli","address":"3180 FM 407, Highland Village"}},{"type":"Feature","geometry":{"type":"Point","coordinates":[-97.2534654,32.9259019]},"properties":{"id":71,"name":"Bear Creek Deli Food Mart","address":"101 Bear Creek Pkwy # A, Keller"}},{"type":"Feature","geometry":{"type":"Point","coordinates":[-96.9397604,32.8670658]},"properties":{"id":72,"name":"Tower East Deli","address":"220 Las Colinas Blvd E # 240A, Irving"}},{"type":"Feature","geometry":{"type":"Point","coordinates":[-97.1320678,32.8523437]},"properties":{"id":73,"name":"Central Deli & Grill","address":"2909 Central Dr, Bedford"}},{"type":"Feature","geometry":{"type":"Point","coordinates":[-97.0837085,32.8531031]},"properties":{"id":74,"name":"Albertsons Deli","address":"1155 N Main St ste a, Euless"}},{"type":"Feature","geometry":{"type":"Point","coordinates":[-96.9435604,32.87121]},"properties":{"id":75,"name":"Murphy's Deli","address":"222 W Las Colinas Blvd. #151, Irving"}},{"type":"Feature","geometry":{"type":"Point","coordinates":[-97.28921199999999,32.8626769]},"properties":{"id":76,"name":"Kroger Deli","address":"6650 N Beach St, Fort Worth"}},{"type":"Feature","geometry":{"type":"Point","coordinates":[-96.9612889,32.908859]},"properties":{"id":77,"name":"Kroger Deli","address":"7505 N MacArthur Blvd, Irving"}},{"type":"Feature","geometry":{"type":"Point","coordinates":[-97.0214974,32.9440752]},"properties":{"id":78,"name":"Deli Select","address":"1000 S Royal Ln, Coppell"}},{"type":"Feature","geometry":{"type":"Point","coordinates":[-97.15056940000001,32.8370182]},"properties":{"id":79,"name":"Albertsons Deli","address":"1220 Airport Fwy, Bedford"}},{"type":"Feature","geometry":{"type":"Point","coordinates":[-97.0470529,33.0100673]},"properties":{"id":80,"name":"Kroger Deli","address":"1101 Flower Mound Rd, Flower Mound"}},{"type":"Feature","geometry":{"type":"Point","coordinates":[-96.9136367,33.0195502]},"properties":{"id":81,"name":"Kroger Deli","address":"4038 Old Denton Rd, Carrollton"}},{"type":"Feature","geometry":{"type":"Point","coordinates":[-97.1010778,32.8823075]},"properties":{"id":82,"name":"Albertsons Deli","address":"4000 Glade Rd, Colleyville"}},{"type":"Feature","geometry":{"type":"Point","coordinates":[-97.095654,33.1951917]},"properties":{"id":83,"name":"Kroger Deli","address":"1592 S Loop 288, Denton"}},{"type":"Feature","geometry":{"type":"Point","coordinates":[-97.10226229999999,33.145778]},"properties":{"id":84,"name":"Kroger Deli","address":"5021 Teasley Ln, Denton"}},{"type":"Feature","geometry":{"type":"Point","coordinates":[-96.95914479999999,32.8779675]},"properties":{"id":85,"name":"La Cuisine Deli","address":"909 Hidden Ridge # 180, Irving"}},{"type":"Feature","geometry":{"type":"Point","coordinates":[-97.07207749999999,33.0346691]},"properties":{"id":86,"name":"Kroger Deli","address":"2709 Cross Timbers Rd, Flower Mound"}},{"type":"Feature","geometry":{"type":"Point","coordinates":[-97.1889779,32.9018025]},"properties":{"id":87,"name":"Kroger Deli","address":"9150 N Tarrant Pkwy, North Richland Hills"}},{"type":"Feature","geometry":{"type":"Point","coordinates":[-97.5440275,32.9017342]},"properties":{"id":88,"name":"Albertsons Deli","address":"480 NW Pkwy St, Azle"}},{"type":"Feature","geometry":{"type":"Point","coordinates":[-97.23679779999999,32.8970893]},"properties":{"id":89,"name":"Kroger Deli","address":"2061 Rufe Snow Dr, Keller"}},{"type":"Feature","geometry":{"type":"Point","coordinates":[-97.18440489999999,32.8471894]},"properties":{"id":90,"name":"Walmart Deli","address":"1732 Precinct Line Rd, Hurst"}},{"type":"Feature","geometry":{"type":"Point","coordinates":[-97.3824685,32.8796403]},"properties":{"id":91,"name":"Albertsons Deli","address":"1201 N Saginaw Blvd, Saginaw"}},{"type":"Feature","geometry":{"type":"Point","coordinates":[-97.0782495,33.0768044]},"properties":{"id":92,"name":"Walmart Deli","address":"Highland Village"}},{"type":"Feature","geometry":{"type":"Point","coordinates":[-97.04329539999999,33.1312625]},"properties":{"id":93,"name":"Albertsons Deli","address":"Corinth"}},{"type":"Feature","geometry":{"type":"Point","coordinates":[-96.98437820000001,33.2278052]},"properties":{"id":94,"name":"Walmart Deli","address":"181 Las Colinas Trail, Cross Roads"}},{"type":"Feature","geometry":{"type":"Point","coordinates":[-96.93210219999999,32.8597076]},"properties":{"id":95,"name":"The Summit Deli","address":"4901 Riverside Dr #150, Irving"}},{"type":"Feature","geometry":{"type":"Point","coordinates":[-96.9668061,33.0104239]},"properties":{"id":96,"name":"Jason's Deli","address":"742 Hebron Pkwy, Lewisville"}},{"type":"Feature","geometry":{"type":"Point","coordinates":[-96.9409543,32.8665026]},"properties":{"id":97,"name":"Subz N Stuff Gourmet Deli 2","address":"Mandalay Tower #3 (Inside bldg, 201 E John W Carpenter Fwy Ste. #350, Irving"}},{"type":"Feature","geometry":{"type":"Point","coordinates":[-97.0781825,32.9354959]},"properties":{"id":98,"name":"Weinberger's Deli","address":"601 S Main St, Grapevine"}},{"type":"Feature","geometry":{"type":"Point","coordinates":[-96.95957539999999,32.9118484]},"properties":{"id":99,"name":"Jason's Deli","address":"7707 N MacArthur Blvd, Irving"}},{"type":"Feature","geometry":{"type":"Point","coordinates":[-96.9769797,32.8388535]},"properties":{"id":100,"name":"Donut Deli","address":"2417 W Airport Fwy, Irving"}},{"type":"Feature","geometry":{"type":"Point","coordinates":[-97.3160188,32.9110735]},"properties":{"id":101,"name":"Jason's Deli","address":"9517 Sage Meadow Trail, Fort Worth"}},{"type":"Feature","geometry":{"type":"Point","coordinates":[-97.088211,32.9276463]},"properties":{"id":102,"name":"Jason's Deli","address":"1270 William D Tate Ave #100, Grapevine"}},{"type":"Feature","geometry":{"type":"Point","coordinates":[-97.1884903,32.8543745]},"properties":{"id":103,"name":"McAlister's Deli","address":"9143 Blvd 26 Suite 600, North Richland Hills"}},{"type":"Feature","geometry":{"type":"Point","coordinates":[-97.08087689999999,33.067534]},"properties":{"id":104,"name":"Jason's Deli","address":"6020 Long Prairie Rd, Flower Mound"}},{"type":"Feature","geometry":{"type":"Point","coordinates":[-96.9701776,32.8892438]},"properties":{"id":105,"name":"Murphy deli","address":"1320 Greenway Dr, Irving"}},{"type":"Feature","geometry":{"type":"Point","coordinates":[-97.1334138,32.8537002]},"properties":{"id":106,"name":"Kroger Deli","address":"2109 Harwood Rd, Bedford"}},{"type":"Feature","geometry":{"type":"Point","coordinates":[-97.13811489999999,33.2321297]},"properties":{"id":107,"name":"Kroger Deli","address":"500 W University Dr, Denton"}},{"type":"Feature","geometry":{"type":"Point","coordinates":[-97.2160545,33.0184921]},"properties":{"id":108,"name":"Jason's Deli","address":"1520 N US Hwy 377, Roanoke"}},{"type":"Feature","geometry":{"type":"Point","coordinates":[-97.1480151,32.8912248]},"properties":{"id":109,"name":"McAlister's Deli","address":"5615 Colleyville Blvd STE 200, Colleyville"}},{"type":"Feature","geometry":{"type":"Point","coordinates":[-97.220427,32.93388]},"properties":{"id":110,"name":"Jason's Deli","address":"1400 Keller Pkwy Ste 100, Keller"}},{"type":"Feature","geometry":{"type":"Point","coordinates":[-97.2303805,32.9962619]},"properties":{"id":111,"name":"Heimbaker's Market & Deli","address":"310 S Oak St Ste 100, Roanoke"}},{"type":"Feature","geometry":{"type":"Point","coordinates":[-97.1059521,33.1870819]},"properties":{"id":112,"name":"Jason's Deli","address":"2219 Hwy 288 S Loop Suite 114, Denton"}},{"type":"Feature","geometry":{"type":"Point","coordinates":[-97.30664329999999,32.9144601]},"properties":{"id":113,"name":"McAlister's Deli","address":"9604 N Riverside Dr Suite 100, Fort Worth"}},{"type":"Feature","geometry":{"type":"Point","coordinates":[-97.034455,32.88776259999999]},"properties":{"id":114,"name":"Boar's Head Deli","address":"2400 Aviation Dr, Dallas"}},{"type":"Feature","geometry":{"type":"Point","coordinates":[-97.08741239999999,33.0714728]},"properties":{"id":115,"name":"Diego's Deli","address":"3711 Justin Rd #100A, Flower Mound"}},{"type":"Feature","geometry":{"type":"Point","coordinates":[-97.2398709,32.8586927]},"properties":{"id":116,"name":"Albertsons Deli","address":"Watauga"}},{"type":"Feature","geometry":{"type":"Point","coordinates":[-97.28184979999999,32.8307203]},"properties":{"id":117,"name":"Fort Worth Deli Provisions Inc","address":"4221 Garland Dr, Haltom City"}},{"type":"Feature","geometry":{"type":"Point","coordinates":[-97.08299889999999,32.8436342]},"properties":{"id":118,"name":"Z & M Food Mart & Deli","address":"511 N Main St, Euless"}},{"type":"Feature","geometry":{"type":"Point","coordinates":[-97.07213229999999,33.0157135]},"properties":{"id":119,"name":"Walmart Deli","address":"Flower Mound"}},{"type":"Feature","geometry":{"type":"Point","coordinates":[-97.2964511,33.0877931]},"properties":{"id":120,"name":"Mercantile 1887","address":"116 W 4th St, Justin"}},{"type":"Feature","geometry":{"type":"Point","coordinates":[-97.1220769,32.9426892]},"properties":{"id":121,"name":"Kroger Deli","address":"2110 E Southlake Blvd, Southlake"}},{"type":"Feature","geometry":{"type":"Point","coordinates":[-97.03760659999999,32.895254]},"properties":{"id":122,"name":"Boar's Head","address":"2400 Aviation Dr, Dallas"}},{"type":"Feature","geometry":{"type":"Point","coordinates":[-96.96079879999999,32.9704722]},"properties":{"id":123,"name":"Kroger Deli","address":"950 E Sandy Lake Rd, Coppell"}},{"type":"Feature","geometry":{"type":"Point","coordinates":[-97.3264718,32.8997955]},"properties":{"id":124,"name":"The Honey Baked Ham Company","address":"2221 Porter Creek Dr, Fort Worth"}},{"type":"Feature","geometry":{"type":"Point","coordinates":[-97.27988409999999,32.9559504]},"properties":{"id":125,"name":"Kroger Deli","address":"12533 Cottageville Ln, Fort Worth"}},{"type":"Feature","geometry":{"type":"Point","coordinates":[-97.308628,32.9116133]},"properties":{"id":126,"name":"Kroger Deli","address":"3300 Texas Sage Trail, Fort Worth"}},{"type":"Feature","geometry":{"type":"Point","coordinates":[-97.2305372,32.9326277]},"properties":{"id":127,"name":"Kroger Deli","address":"976 Keller Pkwy, Keller"}},{"type":"Feature","geometry":{"type":"Point","coordinates":[-96.99069449999999,33.0004161]},"properties":{"id":128,"name":"Walmart Deli","address":"190 E Round Grove Rd, Lewisville"}},{"type":"Feature","geometry":{"type":"Point","coordinates":[-97.10167539999999,32.9308844]},"properties":{"id":129,"name":"Walmart Deli","address":"1601 W State Hwy 114, Grapevine"}},{"type":"Feature","geometry":{"type":"Point","coordinates":[-97.24664489999999,32.8422092]},"properties":{"id":130,"name":"Walmart Deli","address":"6401 NE Loop 820 #820, North Richland Hills"}},{"type":"Feature","geometry":{"type":"Point","coordinates":[-97.1891019,32.90610360000001]},"properties":{"id":131,"name":"Walmart Deli","address":"North Richland Hills"}},{"type":"Feature","geometry":{"type":"Point","coordinates":[-97.01396280000002,33.0466628]},"properties":{"id":132,"name":"Walmart Deli","address":"Lewisville"}},{"type":"Feature","geometry":{"type":"Point","coordinates":[-97.1687558,33.2333097]},"properties":{"id":133,"name":"Walmart Deli","address":"Denton"}},{"type":"Feature","geometry":{"type":"Point","coordinates":[-97.0059036,32.8349264]},"properties":{"id":134,"name":"Walmart Deli","address":"Irving"}},{"type":"Feature","geometry":{"type":"Point","coordinates":[-97.1568393,32.8821345]},"properties":{"id":135,"name":"Walmart Deli","address":"4904 Colleyville Blvd, Colleyville"}},{"type":"Feature","geometry":{"type":"Point","coordinates":[-97.1061751,32.8641596]},"properties":{"id":136,"name":"Walmart Deli","address":"4101 Hwy 121, Bedford"}},{"type":"Feature","geometry":{"type":"Point","coordinates":[-97.13026789999999,33.0746402]},"properties":{"id":137,"name":"Kroger Deli","address":"3400 FM 407 E, Bartonville"}},{"type":"Feature","geometry":{"type":"Point","coordinates":[-97.0927435,33.1946271]},"properties":{"id":138,"name":"The Honey Baked Ham Company","address":"1435 S Loop 288 Ste 113, Denton"}},{"type":"Feature","geometry":{"type":"Point","coordinates":[-96.9816961,33.0040353]},"properties":{"id":139,"name":"The Honey Baked Ham Company","address":"360 E Round Grove Rd Suite 860, Lewisville"}},{"type":"Feature","geometry":{"type":"Point","coordinates":[-97.38684549999999,32.8825396]},"properties":{"id":140,"name":"Walmart Deli","address":"Saginaw"}},{"type":"Feature","geometry":{"type":"Point","coordinates":[-97.54642899999999,32.9045054]},"properties":{"id":141,"name":"Walmart Deli","address":"721 Boyd Rd, Azle"},"id":141},{"type":"Feature","geometry":{"type":"Point","coordinates":[-97.0888229,32.9271691]},"properties":{"id":142,"name":"Eatzi’s Market & Bakery","address":"1200 W State Hwy 114, Grapevine"}},{"type":"Feature","geometry":{"type":"Point","coordinates":[-97.0361841,32.8959586]},"properties":{"id":143,"name":"Boar's Head","address":"2400 Aviation Dr, Dallas"}},{"type":"Feature","geometry":{"type":"Point","coordinates":[-96.9210509,32.9843942]},"properties":{"id":144,"name":"Parks Coffee Roastery & Cafe","address":"1401 Mac Arthur Dr, Carrollton"}},{"type":"Feature","geometry":{"type":"Point","coordinates":[-96.9380901,32.8694757]},"properties":{"id":145,"name":"Pax & Beneficia Coffee - Las Colinas | Irving","address":"5244 N O'Connor Blvd #150, Irving"}},{"type":"Feature","geometry":{"type":"Point","coordinates":[-96.9395894,32.8703634]},"properties":{"id":146,"name":"The Cafe at Williams Square","address":"5205 N O'Connor Blvd Suite 105, Irving"}},{"type":"Feature","geometry":{"type":"Point","coordinates":[-96.9324287,33.02009200000001]},"properties":{"id":147,"name":"PETIT FOUR Dessert Cafe","address":"4070 State Hwy 121 #420, Carrollton"}},{"type":"Feature","geometry":{"type":"Point","coordinates":[-97.2717804,32.9118275]},"properties":{"id":148,"name":"Yummy Cafe & Sweets","address":"9500 Ray White Rd # 127, Fort Worth"}},{"type":"Feature","geometry":{"type":"Point","coordinates":[-96.9198605,32.8463738]},"properties":{"id":149,"name":"Haggar Cafe","address":"Irving"}},{"type":"Feature","geometry":{"type":"Point","coordinates":[-97.29699219999999,33.0882952]},"properties":{"id":150,"name":"The Cafe in Justin","address":"417 N Sealy Ave, Justin"}},{"type":"Feature","geometry":{"type":"Point","coordinates":[-97.31829359999999,32.9168234]},"properties":{"id":151,"name":"Just Love Coffee Cafe - Victory Shops","address":"9749 N Fwy, Fort Worth"}},{"type":"Feature","geometry":{"type":"Point","coordinates":[-96.9865641,33.3036249]},"properties":{"id":152,"name":"Upper Park Cafe","address":"200 S Main St, Aubrey"}},{"type":"Feature","geometry":{"type":"Point","coordinates":[-96.95202259999999,32.8397138]},"properties":{"id":153,"name":"Good Day Cafe Irving","address":"2301 N O'Connor Rd Suit M, Irving"}},{"type":"Feature","geometry":{"type":"Point","coordinates":[-97.26810549999999,32.87354699999999]},"properties":{"id":154,"name":"World Blend Coffee - Ice Cream - Ship & Copy","address":"5410 Basswood Blvd, Fort Worth"}},{"type":"Feature","geometry":{"type":"Point","coordinates":[-97.082258,32.84432]},"properties":{"id":155,"name":"Society Coffee","address":"600 N Main St, Euless"}},{"type":"Feature","geometry":{"type":"Point","coordinates":[-97.3435361,32.8406059]},"properties":{"id":156,"name":"Blue Mound Cafe - Saginaw","address":"5401 Blue Mound Rd, Fort Worth"}},{"type":"Feature","geometry":{"type":"Point","coordinates":[-97.1467661,33.2148182]},"properties":{"id":157,"name":"Aura Coffee","address":"1306 W Hickory St, Denton"}},{"type":"Feature","geometry":{"type":"Point","coordinates":[-97.10817709999999,32.8535156]},"properties":{"id":158,"name":"Oldwest Cafe of Bedford","address":"2900 Hwy 121, Bedford"}},{"type":"Feature","geometry":{"type":"Point","coordinates":[-97.0144275,33.0063887]},"properties":{"id":159,"name":"The Human Bean","address":"1001 W Round Grove Rd, Lewisville"}},{"type":"Feature","geometry":{"type":"Point","coordinates":[-97.1375613,33.2304479]},"properties":{"id":160,"name":"Café Brazil","address":"501 W University Dr, Denton"}},{"type":"Feature","geometry":{"type":"Point","coordinates":[-97.27572289999999,32.8604176]},"properties":{"id":161,"name":"Sunny Street Cafe","address":"5000 Western Center Blvd #370, Haltom City"}},{"type":"Feature","geometry":{"type":"Point","coordinates":[-97.1906995,32.8530978]},"properties":{"id":162,"name":"Sunny Street Café","address":"6021 Walker Blvd, North Richland Hills"}},{"type":"Feature","geometry":{"type":"Point","coordinates":[-97.0175895,32.923548]},"properties":{"id":163,"name":"Cafe Vienna","address":"8500 Freeport Pkwy #120, Irving"}},{"type":"Feature","geometry":{"type":"Point","coordinates":[-97.10027799999999,32.8430855]},"properties":{"id":164,"name":"Mid Cities Cafe","address":"505 N Industrial Blvd # 300, Bedford"}},{"type":"Feature","geometry":{"type":"Point","coordinates":[-96.94555059999999,32.8363827]},"properties":{"id":165,"name":"Country Cafe","address":"110 W Airport Fwy, Irving"}},{"type":"Feature","geometry":{"type":"Point","coordinates":[-96.99395349999999,32.9889454]},"properties":{"id":166,"name":"Black Walnut Cafe","address":"775 N Denton Tap Rd, Coppell"}},{"type":"Feature","geometry":{"type":"Point","coordinates":[-96.9409017,32.8679596]},"properties":{"id":167,"name":"Riverfront Cafe","address":"125 E John W Carpenter Fwy, Irving"}},{"type":"Feature","geometry":{"type":"Point","coordinates":[-97.0173339,33.0434837]},"properties":{"id":168,"name":"Korner Cafe","address":"921 W Main St, Lewisville"}},{"type":"Feature","geometry":{"type":"Point","coordinates":[-96.9356667,33.2215514]},"properties":{"id":169,"name":"Starwood Cafe","address":"26735 US-380, Aubrey"}},{"type":"Feature","geometry":{"type":"Point","coordinates":[-97.1067752,33.1847584]},"properties":{"id":170,"name":"Oldwest Cafe Of Denton","address":"2420 S Interstate 35 E, Denton"}},{"type":"Feature","geometry":{"type":"Point","coordinates":[-96.9901799,32.9252839]},"properties":{"id":171,"name":"Siena Cafe","address":"8704 Cypress Waters Blvd #190, Irving"}},{"type":"Feature","geometry":{"type":"Point","coordinates":[-97.31910669999999,32.901195]},"properties":{"id":172,"name":"My Cafe Breakfast & Lunch","address":"8917 N Fwy #119, Fort Worth"}},{"type":"Feature","geometry":{"type":"Point","coordinates":[-97.2883062,32.92911100000001]},"properties":{"id":173,"name":"Beacon Café On Beach","address":"10760 N Beach St, Keller"}},{"type":"Feature","geometry":{"type":"Point","coordinates":[-97.13263069999999,33.2194868]},"properties":{"id":174,"name":"Loco Cafe","address":"603 N Locust St, Denton"}},{"type":"Feature","geometry":{"type":"Point","coordinates":[-96.99464400000001,33.0464185]},"properties":{"id":175,"name":"The Perc Coffeehouse","address":"115 W Main St, Lewisville"}},{"type":"Feature","geometry":{"type":"Point","coordinates":[-97.0965567,33.1747818]},"properties":{"id":176,"name":"Rising Sun Cafe","address":"3101 Unicorn Lake Blvd, Denton"}},{"type":"Feature","geometry":{"type":"Point","coordinates":[-97.1587964,32.878981]},"properties":{"id":177,"name":"Benny's Cafe","address":"4712 Colleyville Blvd #100, Colleyville"}},{"type":"Feature","geometry":{"type":"Point","coordinates":[-97.1027094,33.1887746]},"properties":{"id":178,"name":"Seven Mile Cafe","address":"2123 Sadau Ct, Denton"}},{"type":"Feature","geometry":{"type":"Point","coordinates":[-97.08001469999999,33.0678692]},"properties":{"id":179,"name":"SUCCESS Space Cafe","address":"6050 Long Prairie Rd SUITE 100, Flower Mound"}},{"type":"Feature","geometry":{"type":"Point","coordinates":[-97.08600109999999,33.0724046]},"properties":{"id":180,"name":"Corner Bakery","address":"3640 Justin Rd Suite 190, Highland Village"}},{"type":"Feature","geometry":{"type":"Point","coordinates":[-97.184342,32.840607]},"properties":{"id":181,"name":"Tropical Smoothie Cafe","address":"760 Airport Fwy Suite 400, Hurst"}},{"type":"Feature","geometry":{"type":"Point","coordinates":[-97.319302,32.904195]},"properties":{"id":182,"name":"Tropical Smoothie Cafe","address":"2700 Presidio Vista Dr Suite 120, Fort Worth"}},{"type":"Feature","geometry":{"type":"Point","coordinates":[-97.18053239999999,32.9402663]},"properties":{"id":183,"name":"Graduate Coffee","address":"1901 W Southlake Blvd Ste 100, Southlake"}},{"type":"Feature","geometry":{"type":"Point","coordinates":[-97.362236,32.8576202]},"properties":{"id":184,"name":"JR’s Cafe","address":"300 S Saginaw Blvd, Saginaw"}},{"type":"Feature","geometry":{"type":"Point","coordinates":[-97.185767,32.8386374]},"properties":{"id":185,"name":"Starbucks","address":"1498 Precinct Line Rd, Hurst"}},{"type":"Feature","geometry":{"type":"Point","coordinates":[-97.0793159,32.9414157]},"properties":{"id":186,"name":"RE:defined Coffee House","address":"200 W Northwest Hwy, Grapevine"}},{"type":"Feature","geometry":{"type":"Point","coordinates":[-96.914615,33.020485]},"properties":{"id":187,"name":"Tropical Smoothie Cafe","address":"1004 E Hebron Pkwy, Carrollton"}},{"type":"Feature","geometry":{"type":"Point","coordinates":[-97.1810824,33.1269164]},"properties":{"id":188,"name":"Snooty Pig Cafe","address":"100 Country Club Rd # 118, Argyle"}},{"type":"Feature","geometry":{"type":"Point","coordinates":[-97.1487018,33.2299916]},"properties":{"id":189,"name":"Egg House Cafe","address":"1622 W University Dr Suite#100, Denton"}},{"type":"Feature","geometry":{"type":"Point","coordinates":[-97.265041,32.895645]},"properties":{"id":190,"name":"Tropical Smoothie Cafe","address":"5605 N Tarrant Pkwy, Fort Worth"}},{"type":"Feature","geometry":{"type":"Point","coordinates":[-97.07394099999999,33.016044]},"properties":{"id":191,"name":"Tropical Smoothie Cafe","address":"2840 Flower Mound Rd, Flower Mound"}},{"type":"Feature","geometry":{"type":"Point","coordinates":[-97.29640649999999,33.0838548]},"properties":{"id":192,"name":"Lonesome Spur Cafe & Catering","address":"218 FM156, Justin"}},{"type":"Feature","geometry":{"type":"Point","coordinates":[-97.152529,32.941865]},"properties":{"id":193,"name":"Tropical Smoothie Cafe","address":"100 W Southlake Blvd #80, Southlake"}},{"type":"Feature","geometry":{"type":"Point","coordinates":[-96.933979,33.220036]},"properties":{"id":194,"name":"Tropical Smoothie Cafe","address":"26742 E University Dr, Little Elm"}},{"type":"Feature","geometry":{"type":"Point","coordinates":[-97.21725099999999,32.934602]},"properties":{"id":195,"name":"Tropical Smoothie Cafe","address":"1521 Keller Pkwy Ste 100, Keller"}},{"type":"Feature","geometry":{"type":"Point","coordinates":[-97.17428570000001,33.3659044]},"properties":{"id":196,"name":"Lone Oak Cafe","address":"711 N 5th St, Sanger"}},{"type":"Feature","geometry":{"type":"Point","coordinates":[-97.23373094506299,33.10147167421761]},"properties":{"id":207,"name":"Northlake Cafe","address":"1611 Commons Cir #300, Northlake, TX 76226"}},{"type":"Feature","geometry":{"type":"Point","coordinates":[-97.0642318,32.9938011]},"properties":{"id":197,"name":"Egg Farm Cafe - Flower Mound","address":"2401 Lakeside Pkwy Suite 100, Flower Mound","radius":""},"id":198},{"type":"Feature","geometry":{"type":"Point","coordinates":[-96.95792589999999,32.8989771]},"properties":{"id":198,"name":"Tropical Smoothie Cafe","address":"6550 N MacArthur Blvd #120, Irving"}},{"type":"Feature","geometry":{"type":"Point","coordinates":[-96.9591698,32.9184093]},"properties":{"id":199,"name":"Starbucks","address":"7979 N MacArthur Blvd, Irving"}},{"type":"Feature","geometry":{"type":"Point","coordinates":[-97.151868,33.229094]},"properties":{"id":200,"name":"Tropical Smoothie Cafe","address":"1807 W University Dr, Denton"}},{"type":"Feature","geometry":{"type":"Point","coordinates":[-97.0755556,33.0741698]},"properties":{"id":201,"name":"Snooty Pig Cafe","address":"2940 Justin Rd, Highland Village"}},{"type":"Feature","geometry":{"type":"Point","coordinates":[-97.089665,33.071435]},"properties":{"id":202,"name":"Tropical Smoothie Cafe","address":"8401 Justin Rd, Double Oak"}},{"type":"Feature","geometry":{"type":"Point","coordinates":[-97.2334353,32.9923323]},"properties":{"id":203,"name":"Tropical Smoothie Cafe","address":"720 S Hwy 377 Suite 100, Roanoke"}},{"type":"Feature","properties":{"marker-color":"#1c5932","marker-size":"medium","marker-symbol":"cafe","name":"Timekeeper's Haus","id":204},"geometry":{"coordinates":[-97.23504427657171,33.13097255140205],"type":"Point"},"id":205},{"type":"Feature","geometry":{"type":"Point","coordinates":[-97.28144581829838,33.02564523168062]},"properties":{"name":"Champ Donut Company","address":"3556 TX-114 #402, Fort Worth, TX 76177","id":205}},{"type":"Feature","properties":{"stroke":"#555555","stroke-width":2,"stroke-opacity":1,"fill":"#fb0404","fill-opacity":0.5,"id":206},"geometry":{"type":"Polygon","coordinates":[[[-97.23371531116045,33.241179481034166],[-97.24681463221584,33.240640564032944],[-97.25978731971753,33.23902902291537],[-97.27250797822776,33.23636043639754],[-97.2848536758929,33.23266059971977],[-97.29670514476663,33.227965272533055],[-97.30794794378936,33.22231982955001],[-97.31847357266619,33.21577881751882],[-97.3281805254625,33.20840542302263],[-97.33697527343702,33.20027085649813],[-97.34477316744874,33.191453658695735],[-97.35149925118841,33.1820389365612],[-97.35708897748837,33.17211753619674],[-97.36148882103544,33.161785161152494],[-97.36465678193954,33.15114144480168],[-97.36656277577615,33.140288985960495],[-97.36718890691039,33.129332357224925],[-97.36652962310762,33.11837709570959],[-97.3645917506279,33.10752868598838],[-97.36139441017345,33.09689154505402],[-97.356968815201,33.08656801903634],[-97.3513579552109,33.07665740124919],[-97.3446161676748,33.06725498087812],[-97.3368086032558,33.05845113127866],[-97.32801058990256,33.05033044643476],[-97.31830690225581,33.04297093363239],[-97.30779094359197,33.03644326984178],[-97.29656384823588,33.03081012867853],[-97.2847335130067,33.026125584135585],[-97.27241356681252,33.02243459655083],[-97.25972228798247,33.01977258550578],[-97.24678147931814,33.018165093545825],[-97.23371531116045,33.017627543778076],[-97.22064914300275,33.018165093545825],[-97.20770833433843,33.01977258550578],[-97.19501705550839,33.02243459655083],[-97.1826971093142,33.026125584135585],[-97.17086677408501,33.03081012867853],[-97.15963967872894,33.03644326984178],[-97.14912372006508,33.04297093363239],[-97.13942003241833,33.05033044643476],[-97.13062201906509,33.05845113127866],[-97.1228144546461,33.06725498087812],[-97.11607266710999,33.07665740124919],[-97.11046180711989,33.08656801903634],[-97.10603621214744,33.09689154505402],[-97.102838871693,33.10752868598838],[-97.10090099921327,33.11837709570959],[-97.10024171541052,33.129332357224925],[-97.10086784654474,33.140288985960495],[-97.10277384038136,33.15114144480168],[-97.10594180128545,33.161785161152494],[-97.11034164483252,33.17211753619674],[-97.11593137113249,33.1820389365612],[-97.12265745487215,33.191453658695735],[-97.13045534888388,33.20027085649813],[-97.13925009685842,33.20840542302263],[-97.1489570496547,33.21577881751882],[-97.15948267853155,33.22231982955001],[-97.17072547755426,33.227965272533055],[-97.18257694642799,33.23266059971977],[-97.19492264409314,33.23636043639754],[-97.20764330260336,33.23902902291537],[-97.22061599010506,33.240640564032944],[-97.23371531116045,33.241179481034166]]]},"id":207}]}